,City,Cloudiness,Country,Date,Humidity,Temp,Lat,Lng,Wind Speed
0,rikitea,8,PF,1580101465,83,79.12,-23.12,-134.97,7.4
1,hithadhoo,79,MV,1580101278,80,82.22,-0.6,73.08,11.61
2,hobart,48,AU,1580101465,30,72.0,-42.88,147.33,17.22
3,albany,90,US,1580101465,100,37.99,42.6,-73.97,4.7
4,mujiayingzi,100,CN,1580101466,27,33.42,42.12,118.78,3.33
5,tiznit,0,MA,1580101466,48,48.54,29.58,-9.5,3.74
6,klaksvik,97,FO,1580101466,93,35.6,62.23,-6.59,13.87
7,puerto ayora,100,EC,1580101188,26,75.0,-0.74,-90.35,3.0
8,catamarca,100,AR,1580101466,91,59.0,-28.47,-65.79,1.99
9,ushuaia,75,AR,1580101285,66,48.2,-54.8,-68.3,5.82
10,bonavista,96,CA,1580101467,83,28.99,48.65,-53.11,4.0
11,kamloops,75,CA,1580101467,75,41.0,50.67,-120.32,20.8
12,hermanus,82,ZA,1580101467,76,59.0,-34.42,19.23,1.01
13,mataura,88,NZ,1580101285,73,63.0,-46.19,168.86,8.01
14,busselton,0,AU,1580101467,7,100.99,-33.65,115.33,15.41
15,cape town,20,ZA,1580101259,82,63.0,-33.93,18.42,5.82
16,jamestown,90,US,1580101448,92,33.01,42.1,-79.24,12.75
17,thompson,90,CA,1580101468,84,-2.2,55.74,-97.86,1.81
18,tommot,99,RU,1580101468,91,17.71,58.96,126.29,9.26
19,kruisfontein,29,ZA,1580101468,68,60.78,-34.0,24.73,10.65
20,punta arenas,75,CL,1580101468,62,51.8,-53.15,-70.92,9.17
21,buala,95,SB,1580101468,74,84.7,-8.14,159.59,8.9
22,kodiak,90,US,1580101469,66,15.8,57.79,-152.41,11.41
23,lebu,27,CL,1580101469,70,54.18,-37.62,-73.65,5.95
24,kapaa,1,US,1580101373,83,77.0,22.08,-159.32,9.17
25,catuday,100,PH,1580101469,80,78.1,16.29,119.81,14.97
26,ponta do sol,20,PT,1580101469,71,57.2,32.67,-17.1,1.12
27,tarakan,18,ID,1580101470,70,84.92,3.3,117.63,9.69
28,marzuq,0,YE,1580101470,34,57.56,14.4,46.47,9.71
29,vagur,100,FO,1580101470,77,41.77,61.47,-6.81,52.41
30,vaini,40,TO,1580101470,83,82.4,-21.2,-175.2,6.93
31,alberton,100,CA,1580101471,75,36.0,46.82,-64.07,13.49
32,barrow,75,US,1580101445,74,-25.6,71.29,-156.79,9.17
33,jacobabad,42,PK,1580101210,39,68.29,28.28,68.44,12.46
34,tynda,99,RU,1580101471,92,-1.95,55.17,124.72,1.88
35,laurel,1,US,1580101283,74,41.0,39.1,-76.85,6.93
36,nador,20,MA,1580101268,81,51.8,35.17,-2.93,1.12
37,nikolskoye,99,RU,1580101174,73,27.0,59.7,30.79,8.95
38,urucara,86,BR,1580101472,95,74.3,-2.54,-57.76,2.1
39,ugoofaaru,100,MV,1580101472,75,81.27,5.67,73.0,9.22
40,san patricio,0,MX,1580101472,77,75.36,19.22,-104.7,9.84
41,fortuna,90,US,1580101473,81,51.8,40.6,-124.16,8.05
42,praia,0,CV,1580101473,60,73.4,14.92,-23.51,12.75
43,mount gambier,100,AU,1580101473,43,73.4,-37.83,140.77,12.75
44,cherskiy,86,RU,1580101424,89,-23.19,68.75,161.3,1.03
45,castro,1,BR,1580101473,91,63.59,-24.79,-50.01,4.32
46,saint-philippe,75,RE,1580101474,61,80.6,-21.36,55.77,6.93
47,shenjiamen,100,CN,1580101474,84,48.22,29.96,122.3,29.39
48,bonthe,84,SL,1580101474,87,72.27,7.53,-12.51,5.08
49,borogontsy,100,RU,1580101474,96,-22.88,62.67,131.17,7.2
50,kochi,99,IN,1580101448,65,82.4,9.94,76.26,5.82
51,hilo,75,US,1580101207,69,75.2,19.73,-155.09,5.82
52,namatanai,52,PG,1580101475,72,85.91,-3.67,152.43,10.29
53,waitati,64,NZ,1580101475,84,59.56,-45.75,170.57,9.44
54,hasaki,75,JP,1580101475,61,46.4,35.73,140.83,9.17
55,honningsvag,75,NO,1580101475,73,21.2,70.98,25.97,9.17
56,aklavik,90,CA,1580101475,68,-18.4,68.22,-135.01,9.17
57,cockburn town,0,TC,1580101476,75,75.2,21.46,-71.14,8.97
58,surt,49,LY,1580101476,34,56.1,31.21,16.59,8.05
59,bethel,90,US,1580101476,64,39.99,41.37,-73.41,9.17
60,mogadishu,85,SO,1580101476,74,78.8,2.04,45.34,11.41
61,pitimbu,93,BR,1580101476,87,78.8,-7.47,-34.81,4.7
62,ancud,3,CL,1580101476,87,48.2,-41.87,-73.82,4.7
63,taoudenni,85,ML,1580101477,25,68.05,22.68,-3.98,7.78
64,bluff,96,NZ,1580101477,73,63.0,-46.6,168.33,8.01
65,kuusamo,93,FI,1580101184,83,-13.0,65.97,29.18,2.24
66,semey,75,KZ,1580101477,85,24.8,50.41,80.23,22.37
67,bandar-e lengeh,0,IR,1580101477,54,57.2,26.56,54.88,6.93
68,matara,98,LK,1580101477,62,82.87,5.95,80.54,4.63
69,nisia floresta,75,BR,1580101478,88,80.6,-6.09,-35.21,4.7
70,souillac,75,MU,1580101478,83,80.01,-20.52,57.52,9.17
71,baft,0,IR,1580101478,43,31.84,29.23,56.61,5.82
72,lagos,43,NG,1580101300,64,73.4,6.58,3.75,9.17
73,nanchong,2,CN,1580101478,51,52.02,30.8,106.08,5.82
74,waipawa,53,NZ,1580101479,88,68.0,-41.41,175.52,25.28
75,butaritari,100,KI,1580101479,81,82.83,3.07,172.79,17.4
76,qaanaaq,52,GL,1580101479,51,-9.71,77.48,-69.36,2.64
77,porto novo,17,BJ,1580101479,83,71.6,6.5,2.6,4.7
78,bredasdorp,72,ZA,1580101479,76,55.4,-34.53,20.04,1.12
79,tasiilaq,100,GL,1580101479,50,30.2,65.61,-37.64,5.82
80,mayo,90,US,1580101480,60,42.01,38.89,-76.51,5.82
81,port keats,16,AU,1580101480,59,91.85,-14.25,129.55,8.68
82,santa rosalia,0,MX,1580101480,62,59.7,27.32,-112.28,4.99
83,ayan,64,RU,1580101480,72,7.43,56.45,138.17,3.06
84,mar del plata,0,AR,1580101480,59,60.8,-38.0,-57.56,12.75
85,zalantun,0,CN,1580101480,78,37.0,48.0,122.72,15.01
86,price,75,US,1580101481,92,28.0,39.6,-110.81,1.77
87,lorengau,100,PG,1580101266,76,84.33,-2.02,147.27,11.39
88,lunenburg,83,CA,1580101481,93,39.0,44.38,-64.32,3.0
89,port alfred,20,ZA,1580101481,74,64.99,-33.59,26.89,4.0
90,atuona,73,PF,1580101481,72,81.12,-9.8,-139.03,10.85
91,avarua,100,CK,1580101481,88,78.8,-21.21,-159.78,10.29
92,sulangan,46,PH,1580101482,79,81.05,11.14,123.72,8.5
93,bafoulabe,99,ML,1580101482,10,72.95,13.81,-10.83,5.99
94,honiara,20,SB,1580101253,70,89.6,-9.43,159.95,13.87
95,paita,94,PE,1580101482,75,75.85,-5.09,-81.11,5.79
96,mahebourg,75,MU,1580101482,83,80.01,-20.41,57.7,9.17
97,coquimbo,75,CL,1580101483,93,62.6,-29.95,-71.34,9.17
98,new norfolk,46,AU,1580101483,30,72.0,-42.78,147.06,17.22
99,zimapan,72,MX,1580101483,76,55.8,20.75,-99.35,1.14
100,yenagoa,33,NG,1580101483,89,70.25,4.92,6.26,2.51
101,ruidoso,1,US,1580101483,41,51.01,33.33,-105.67,8.05
102,bambous virieux,75,MU,1580101483,83,80.01,-20.34,57.76,9.17
103,brownsville,40,US,1580101332,93,64.0,25.9,-97.5,4.7
104,gotsu,75,JP,1580101484,87,44.6,35.0,132.22,13.87
105,ribeira grande,100,PT,1580101484,93,59.63,38.52,-28.7,25.1
106,balabac,6,PH,1580101484,66,85.1,7.99,117.06,6.53
107,petauke,96,ZM,1580101484,92,69.55,-14.24,31.33,4.45
108,vydrino,96,RU,1580101484,90,23.0,51.48,104.85,3.71
109,elizabeth city,1,US,1580101485,80,44.6,36.29,-76.25,3.36
110,beringovskiy,100,RU,1580101485,94,12.97,63.05,179.32,2.82
111,east london,36,ZA,1580101446,67,60.8,-33.02,27.91,16.11
112,carnarvon,0,AU,1580101485,74,82.4,-24.87,113.63,17.22
113,gravelbourg,100,CA,1580101485,96,23.83,49.88,-106.55,4.52
114,yellowknife,90,CA,1580101463,84,5.0,62.46,-114.35,2.24
115,bengkulu,75,ID,1580101486,67,85.68,-3.8,102.27,5.39
116,genhe,55,CN,1580101486,81,13.71,50.78,121.52,2.86
117,buin,0,CL,1580101486,47,75.2,-33.73,-70.75,3.36
118,bambanglipuro,33,ID,1580101486,64,86.07,-7.95,110.28,5.39
119,provideniya,0,RU,1580101486,76,-5.8,64.38,-173.3,4.47
120,komsomolskiy,40,UZ,1580101422,69,37.4,40.43,71.72,4.7
121,port macquarie,0,AU,1580101388,48,89.01,-31.43,152.92,18.34
122,norman wells,75,CA,1580101487,69,-11.2,65.28,-126.83,17.22
123,turukhansk,100,RU,1580101487,92,5.86,65.82,87.98,8.95
124,saint-francois,96,FR,1580101487,80,39.2,46.42,3.91,6.93
125,matagami,90,CA,1580101353,100,24.8,49.75,-77.63,10.29
126,gisborne,0,NZ,1580101288,52,79.93,-38.65,178.0,5.5
127,sorland,75,NO,1580101488,54,30.2,67.67,12.69,13.87
128,akita,75,JP,1580101488,48,41.0,39.72,140.12,5.82
129,sur,2,OM,1580101349,48,67.21,22.57,59.53,16.84
130,iseyin,0,NG,1580101489,18,65.7,7.97,3.6,2.71
131,la ronge,90,CA,1580101489,92,21.2,55.1,-105.28,3.36
132,gigmoto,50,PH,1580101489,80,80.49,13.78,124.39,12.8
133,camacha,40,PT,1580101489,77,60.8,33.08,-16.33,3.36
134,te anau,91,NZ,1580101489,90,61.07,-45.42,167.72,4.27
135,merritt island,75,US,1580101327,87,59.0,28.54,-80.67,5.19
136,tahoua,5,NE,1580101326,12,64.4,14.89,5.27,6.93
137,tuktoyaktuk,90,CA,1580101385,75,-18.4,69.45,-133.04,6.93
138,hun,47,LY,1580101490,26,56.07,29.13,15.95,5.46
139,chuy,20,UY,1580101490,96,70.27,-33.7,-53.46,7.05
140,nyuksenitsa,91,RU,1580101490,94,4.44,60.41,44.24,8.08
141,alyangula,99,AU,1580101490,56,95.0,-13.85,136.42,8.05
142,college,90,US,1580101491,68,-14.01,64.86,-147.8,3.51
143,tiksi,1,RU,1580101491,53,-29.45,71.69,128.87,1.12
144,hendersonville,90,US,1580101410,93,46.99,36.3,-86.62,5.99
145,linhares,100,BR,1580101277,96,72.32,-19.39,-40.07,3.69
146,toamasina,75,MG,1580101491,83,75.2,-18.17,49.38,8.05
147,victoria,20,HK,1580101455,54,63.0,22.29,114.16,11.41
148,rocha,39,UY,1580101264,98,65.3,-34.48,-54.33,6.46
149,cidreira,87,BR,1580101492,73,76.69,-30.18,-50.21,17.38
150,great yarmouth,98,GB,1580101492,93,45.0,52.61,1.73,10.29
151,baykit,99,RU,1580101493,94,6.35,61.67,96.37,4.03
152,avera,90,US,1580101493,66,52.0,33.19,-82.53,3.36
153,tabuk,100,PH,1580101493,71,79.93,17.42,121.44,5.59
154,termiz,90,UZ,1580101493,63,39.2,37.22,67.28,2.24
155,boma,52,GH,1580101493,97,64.78,7.08,-2.17,1.23
156,natal,75,BR,1580101494,88,80.6,-5.79,-35.21,4.7
157,hambantota,20,LK,1580101494,74,82.4,6.12,81.12,14.99
158,chokurdakh,100,RU,1580101398,96,-27.56,70.63,147.92,4.38
159,naumburg,67,DE,1580101494,86,39.99,51.15,11.82,10.29
160,upernavik,92,GL,1580101494,92,-14.66,72.79,-56.15,4.12
161,cam ranh,20,VN,1580101494,70,84.2,11.92,109.16,12.75
162,santa elena,100,EC,1580101495,82,78.03,-2.23,-80.85,8.86
163,lima,100,PE,1580101203,88,73.4,-12.04,-77.03,14.99
164,hofn,100,IS,1580101384,80,38.71,64.25,-15.21,26.15
165,deputatskiy,100,RU,1580101495,78,-25.29,69.3,139.9,2.3
166,baruun-urt,0,MN,1580101495,84,14.14,46.68,113.28,5.53
167,saint george,90,US,1580101208,66,53.01,37.1,-113.58,9.17
168,poiana lacului,15,RO,1580101496,86,34.95,44.82,24.73,2.86
169,las cruces,1,US,1580101496,39,55.4,32.31,-106.78,9.17
170,zhigansk,0,RU,1580101496,61,-29.11,66.77,123.37,2.89
171,vila franca do campo,20,PT,1580101496,88,62.6,37.72,-25.43,13.87
172,zhigalovo,76,RU,1580101496,86,20.86,54.81,105.16,1.16
173,kaitangata,100,NZ,1580101496,86,57.56,-46.28,169.85,5.32
174,kavaratti,20,IN,1580101496,70,84.2,10.57,72.64,0.89
175,airai,27,TL,1580101497,67,81.01,-8.93,125.41,5.14
176,miedzyrzec podlaski,100,PL,1580101497,74,31.66,51.99,22.78,6.42
177,peniche,75,PT,1580101497,93,57.0,39.36,-9.38,9.17
178,sitka,90,US,1580101497,86,41.0,57.05,-135.33,8.05
179,nanortalik,100,GL,1580101498,75,22.44,60.14,-45.24,22.75
180,manacapuru,100,BR,1580101498,88,78.8,-3.3,-60.62,4.7
181,praia da vitoria,75,PT,1580101498,88,62.6,38.73,-27.07,25.75
182,yecla,0,ES,1580101498,66,50.0,38.61,-1.11,14.99
183,saldanha,53,ZA,1580101498,82,55.4,-33.01,17.94,6.93
184,nuuk,100,GL,1580101323,72,12.2,64.18,-51.72,10.29
185,bilma,32,NE,1580101499,15,57.34,18.69,12.92,7.11
186,porto empedocle,1,IT,1580101499,92,46.99,37.29,13.53,5.23
187,ruhengeri,100,RW,1580101499,71,57.22,-1.5,29.64,3.51
188,dawlatabad,0,AF,1580101499,52,41.77,36.41,64.91,5.01
189,esperance,0,AU,1580101499,43,87.8,-33.87,121.9,14.99
190,port shepstone,67,ZA,1580101481,55,64.38,-30.74,30.45,14.43
191,ballina,0,AU,1580101500,65,89.6,-28.87,153.57,14.99
192,georgetown,20,MY,1580101500,49,91.4,5.41,100.34,13.87
193,bae,20,ID,1580101500,70,90.0,-6.77,110.86,8.05
194,ilulissat,63,GL,1580101500,59,-0.4,69.22,-51.1,2.24
195,yulara,0,AU,1580101501,8,100.4,-25.24,130.99,17.22
196,broome,90,US,1580101501,92,35.01,42.25,-75.83,8.05
197,dubbo,39,AU,1580101501,30,96.8,-32.25,148.62,11.41
198,jamame,100,SO,1580101501,86,81.25,0.07,42.75,12.73
199,kenora,90,CA,1580101501,92,15.8,49.82,-94.43,5.82
200,constitucion,6,CL,1580101501,47,66.81,-35.33,-72.42,6.51
201,tabory,100,RU,1580101502,95,-1.46,58.52,64.55,7.7
202,larap,97,PH,1580101502,84,79.59,14.3,122.65,10.94
203,half moon bay,1,US,1580101273,81,53.6,37.46,-122.43,3.36
204,cayenne,99,GF,1580101502,100,73.4,4.93,-52.33,4.7
205,elko,20,US,1580101223,86,34.0,41.0,-115.5,10.29
206,leningradskiy,100,RU,1580101503,93,-7.55,69.38,178.42,12.62
207,dikson,100,RU,1580101503,94,-6.65,73.51,80.55,6.49
208,geraldton,0,AU,1580101503,26,96.8,-28.77,114.6,12.75
209,lavrentiya,0,RU,1580101503,83,-15.29,65.58,-171.0,0.47
210,amapa,100,BR,1580101503,99,71.89,1.0,-52.0,2.24
211,hualmay,100,PE,1580101504,84,70.81,-11.1,-77.61,4.07
212,umtata,10,ZA,1580101504,62,53.6,-31.59,28.78,9.17
213,arraial do cabo,61,BR,1580101504,80,75.6,-22.97,-42.03,12.73
214,lakes entrance,100,AU,1580101504,75,75.99,-37.88,147.98,5.01
215,waycross,90,US,1580101504,62,53.6,31.21,-82.35,3.36
216,sainte-marie,19,RE,1580101504,57,80.6,-20.9,55.55,11.41
217,sherbakul,75,RU,1580101505,86,28.4,54.63,72.4,20.13
218,bronzani majdan,75,BA,1580101505,100,35.6,44.79,16.93,2.24
219,alangudi,20,IN,1580101505,61,80.6,10.36,78.98,4.7
220,reykjavik,40,IS,1580101505,75,32.0,64.14,-21.9,13.87
221,torbay,90,CA,1580101505,79,30.99,47.67,-52.73,10.29
222,irtyshskiy,100,RU,1580101506,94,9.82,58.33,68.13,10.02
223,boa vista,23,BR,1580101506,65,82.4,2.82,-60.67,5.82
224,touros,75,BR,1580101506,94,78.8,-5.2,-35.46,4.7
225,huarmey,100,PE,1580101506,74,72.91,-10.07,-78.15,3.27
226,ylivieska,100,FI,1580101506,87,16.0,64.08,24.67,15.01
227,port elizabeth,20,ZA,1580101213,77,60.8,-33.92,25.57,10.29
228,grindavik,40,IS,1580101507,76,32.0,63.84,-22.43,13.87
229,lapua,90,FI,1580101507,85,19.99,62.92,23.17,11.41
230,jumla,19,NP,1580101266,85,53.01,29.27,82.18,2.84
231,ornskoldsvik,100,SE,1580101507,100,30.2,63.29,18.72,10.29
232,tshikapa,98,CD,1580101508,95,71.17,-6.42,20.8,2.28
233,marystown,100,CA,1580101508,90,35.37,47.17,-55.15,23.98
234,dwarka,2,IN,1580101508,78,72.23,22.24,68.97,9.4
235,nizhniy tsasuchey,0,RU,1580101508,68,14.67,50.52,115.13,2.15
236,nkhotakota,100,MW,1580101508,78,76.98,-12.93,34.3,4.12
237,menongue,99,AO,1580101509,90,66.16,-14.66,17.69,0.78
238,lewiston,1,US,1580101509,86,37.0,44.1,-70.21,4.7
239,sao filipe,0,CV,1580101509,61,73.35,14.9,-24.5,14.61
240,pacific grove,1,US,1580101509,87,54.0,36.62,-121.92,5.82
241,sept-iles,90,CA,1580101347,86,28.99,50.2,-66.38,9.17
242,mana,100,GF,1580101509,99,73.47,5.66,-53.78,2.26
243,tartus,75,SY,1580101510,76,51.8,34.89,35.89,4.7
244,maniitsoq,100,GL,1580101510,81,11.35,65.42,-52.9,5.46
245,phalombe,56,MW,1580101510,79,74.98,-15.81,35.65,3.94
246,mega,100,ET,1580101510,75,70.86,4.05,38.3,13.98
247,kalmunai,93,LK,1580101510,64,80.2,7.42,81.82,10.04
248,khatanga,96,RU,1580101510,98,-19.32,71.97,102.5,1.01
249,champerico,2,GT,1580101511,80,73.83,14.3,-91.92,4.27
250,searcy,1,US,1580101511,100,46.4,35.25,-91.74,5.23
251,houma,90,US,1580101511,100,55.99,29.6,-90.72,4.7
252,acapulco,5,MX,1580101450,74,80.6,16.86,-99.89,8.05
253,takoradi,7,GH,1580101511,90,72.82,4.88,-1.76,0.85
254,mae hong son,0,TH,1580101512,52,68.0,19.3,97.97,2.24
255,haines junction,100,CA,1580101512,99,-3.28,60.75,-137.51,4.18
256,tautira,20,PF,1580101512,74,84.2,-17.73,-149.15,5.82
257,manzhouli,0,CN,1580101512,82,8.65,49.6,117.43,2.37
258,kiunga,23,PG,1580101512,43,96.31,-6.12,141.29,2.33
259,port hardy,90,CA,1580101285,93,41.0,50.7,-127.42,2.24
260,portage,90,US,1580101513,96,35.01,41.17,-81.2,9.17
261,stornoway,100,GB,1580101513,93,37.4,58.21,-6.39,13.87
262,hecun,76,CN,1580101513,42,40.1,36.53,114.11,1.86
263,makakilo city,1,US,1580101513,64,78.8,21.35,-158.09,5.82
264,portland,90,US,1580101380,87,48.2,45.52,-122.68,14.99
265,wasilla,75,US,1580101497,49,1.4,61.58,-149.44,11.41
266,dehloran,0,IR,1580101514,47,50.16,32.69,47.27,2.33
267,myitkyina,0,MM,1580101514,24,76.03,25.38,97.4,1.92
268,caratinga,100,BR,1580101514,99,66.94,-19.79,-42.14,1.92
269,hami,20,CN,1580101514,57,18.41,42.8,93.45,0.43
270,naze,75,JP,1580101514,68,71.6,28.37,129.48,17.22
271,podgorica,90,ME,1580101515,100,46.4,42.44,19.26,3.36
272,alice springs,17,AU,1580101395,11,98.6,-23.7,133.88,19.46
273,ous,100,RU,1580101515,95,-5.57,60.91,61.52,8.37
274,saskylakh,96,RU,1580101515,97,-18.78,71.92,114.08,5.26
275,cotonou,17,BJ,1580101321,83,71.6,6.37,2.42,4.7
276,sola,72,VU,1580101515,75,83.46,-13.88,167.55,13.04
277,ryotsu,75,JP,1580101516,60,42.8,38.08,138.43,13.87
278,ternate,96,ID,1580101516,66,85.78,0.8,127.4,6.35
279,mango,75,US,1580101516,87,59.0,27.98,-82.31,5.03
280,necochea,0,AR,1580101516,66,59.0,-38.55,-58.74,8.01
281,carballo,75,ES,1580101516,93,54.0,43.21,-8.69,3.36
282,trelew,41,AR,1580101516,45,53.38,-43.25,-65.31,9.69
283,choix,0,MX,1580101517,59,66.94,26.71,-108.32,0.38
284,tiruttani,28,IN,1580101517,64,82.4,13.18,79.61,3.36
285,siavonga,32,ZM,1580101517,72,76.17,-16.54,28.71,8.63
286,coihaique,94,CL,1580101517,58,53.6,-45.58,-72.07,3.36
287,ponta delgada,20,PT,1580101517,88,62.6,37.73,-25.67,13.87
288,seymchan,100,RU,1580101517,99,-28.66,62.88,152.43,2.37
289,antofagasta,90,CL,1580101518,88,72.0,-23.65,-70.4,8.05
290,si sa ket,75,TH,1580101518,58,82.4,15.11,104.33,4.7
291,ludwigslust,83,DE,1580101518,96,37.0,53.32,11.5,1.99
292,gat,100,IL,1580101426,87,46.0,31.61,34.76,1.12
293,tessalit,100,ML,1580101518,11,65.57,20.2,1.01,5.46
294,eyl,16,SO,1580101518,76,79.34,7.98,49.82,29.21
295,chernyshevskiy,78,RU,1580101519,95,-3.69,63.01,112.47,6.49
296,zemio,74,CF,1580101519,23,70.12,5.03,25.14,7.7
297,walvis bay,46,NA,1580101519,87,60.01,-22.96,14.51,5.82
298,nata,100,PA,1580101519,25,71.01,8.33,-80.52,5.28
299,tuatapere,94,NZ,1580101519,73,63.0,-46.13,167.68,8.01
300,pouembout,87,NC,1580101519,52,82.4,-21.13,164.9,6.51
301,kloulklubed,75,PW,1580101520,70,86.0,7.04,134.26,8.05
302,luganville,75,VU,1580101520,70,86.0,-15.53,167.17,9.17
303,jacareacanga,82,BR,1580101520,94,74.01,-6.22,-57.75,2.73
304,krasnoye,94,UA,1580101520,92,26.6,49.91,24.61,3.8
305,capul,51,PH,1580101520,75,81.19,12.42,124.18,5.46
306,longyearbyen,51,SJ,1580101520,77,3.2,78.22,15.64,3.36
307,lufilufi,75,WS,1580101521,83,82.4,-13.87,-171.6,9.82
308,torbat-e jam,0,IR,1580101521,58,36.59,35.24,60.62,10.56
309,yaguajay,0,CU,1580101432,77,72.27,22.33,-79.24,7.58
310,husavik,59,IS,1580101521,79,21.2,66.04,-17.34,11.41
311,gumdag,0,TM,1580101521,62,46.0,39.21,54.59,11.18
312,pevek,100,RU,1580101522,92,-3.24,69.7,170.31,3.31
313,fredericksburg,1,US,1580101248,84,39.2,38.3,-77.46,2.71
314,talakan,42,RU,1580101522,89,7.57,50.32,130.37,3.78
315,sicuani,100,PE,1580101522,98,34.95,-14.27,-71.23,4.23
316,ulladulla,59,AU,1580101522,55,96.01,-35.35,150.47,13.87
317,prince rupert,90,CA,1580101522,87,42.8,54.32,-130.32,21.92
318,narsaq,96,GL,1580101523,65,8.6,60.92,-46.05,4.7
319,doha,0,QA,1580101523,58,64.0,25.29,51.53,13.87
320,kefalos,40,GR,1580101523,76,55.4,36.75,26.96,8.05
321,pervomayskiy,100,RU,1580101523,96,33.82,53.25,40.29,13.76
322,lowicz,100,PL,1580101523,92,32.0,52.11,19.95,5.82
323,moyale,99,KE,1580101523,76,74.79,3.52,39.06,11.39
324,kaeo,35,NZ,1580101524,75,79.0,-35.1,173.78,10.11
325,freeport,1,US,1580101524,69,39.99,40.66,-73.58,20.02
326,faanui,39,PF,1580101524,74,83.48,-16.48,-151.75,10.13
327,camana,96,PE,1580101524,90,66.72,-16.62,-72.71,3.56
328,bubaque,84,GW,1580101524,48,77.67,11.28,-15.83,13.85
329,ucluelet,97,CA,1580101424,92,46.0,48.93,-125.55,1.01
330,coahuayana,5,MX,1580101525,88,66.2,18.73,-103.68,4.76
331,hirado,75,JP,1580101525,81,53.01,33.36,129.55,19.46
332,guerrero negro,10,MX,1580101525,86,57.99,27.98,-114.06,12.73
333,muncar,1,ID,1580101525,75,83.95,-8.43,114.33,10.38
334,vestmannaeyjar,87,IS,1580101525,63,38.77,63.44,-20.27,14.56
335,teguldet,100,RU,1580101526,76,17.28,57.31,88.17,10.85
336,robertsport,82,LR,1580101526,78,79.92,6.75,-11.37,0.78
337,manyana,9,BW,1580101526,32,68.86,-23.4,21.72,10.07
338,udala,40,ES,1580101526,75,57.2,43.08,-2.51,19.46
339,hoceni,64,RO,1580101526,70,31.95,46.54,28.01,3.31
340,lasa,5,IT,1580101526,86,30.99,46.62,10.7,5.82
341,nurobod,90,UZ,1580101527,64,35.6,40.91,69.8,2.24
342,benguela,93,AO,1580101527,81,78.19,-12.58,13.41,1.28
343,isangel,83,VU,1580101527,83,78.84,-19.55,169.27,14.76
344,kenai,1,US,1580101527,76,6.01,60.55,-151.26,6.93
345,birjand,2,IR,1580101528,86,26.6,32.87,59.22,4.7
346,ichinohe,75,JP,1580101528,44,43.0,40.21,141.3,16.11
347,toktogul,94,KG,1580101528,91,16.97,41.87,72.94,1.61
348,narva-joesuu,100,EE,1580101528,93,29.93,59.46,28.04,14.29
349,yumen,52,CN,1580101528,32,30.79,40.28,97.2,12.24
350,meulaboh,67,ID,1580101528,76,83.48,4.14,96.13,3.33
351,hovd,23,MN,1580101492,56,17.37,48.01,91.64,1.72
352,urussu,98,RU,1580101529,95,10.22,54.6,53.46,5.99
353,toora-khem,41,RU,1580101529,86,13.41,52.47,96.11,2.68
354,beloha,0,MG,1580101529,42,88.54,-25.17,45.05,8.75
355,kano,0,NG,1580101447,23,56.59,12.0,8.52,7.58
356,vao,100,NC,1580101530,82,78.28,-22.67,167.48,16.35
357,dzhebariki-khaya,60,RU,1580101530,82,-28.89,62.22,135.8,2.44
358,polunochnoye,100,RU,1580101530,95,-4.58,60.87,60.42,7.76
359,herat,75,AF,1580101530,100,30.2,34.5,62.0,2.24
360,luderitz,0,NA,1580101531,63,60.8,-26.65,15.16,6.93
361,hobyo,78,SO,1580101531,63,81.07,5.35,48.53,24.83
362,yamada,56,JP,1580101531,54,36.16,39.47,141.95,5.17
363,bozhou,79,CN,1580101531,56,43.05,33.88,115.77,7.38
364,vagamo,100,NO,1580101531,98,18.27,61.88,9.1,5.12
365,pareora,100,NZ,1580101531,90,68.0,-44.49,171.21,4.0
366,jalu,95,LY,1580101532,41,52.5,29.03,21.55,8.43
367,vardo,100,NO,1580101532,66,21.4,70.37,31.11,12.15
368,sabha,0,LY,1580101532,23,54.86,27.04,14.43,5.64
369,oktyabrskiy,98,RU,1580101532,95,10.22,54.48,53.47,5.99
370,moura,90,PT,1580101532,100,39.2,38.14,-7.45,2.24
371,estacion coahuila,1,MX,1580101533,42,62.6,32.19,-115.0,6.93
372,ghanzi,38,BW,1580101533,31,75.38,-21.57,21.78,12.26
373,laguna,1,US,1580101533,81,54.0,38.42,-121.42,4.7
374,altay,78,CN,1580101533,85,18.46,47.87,88.12,1.5
375,salalah,0,OM,1580101533,25,60.8,17.02,54.09,23.04
376,susanino,63,RU,1580101534,92,12.36,58.15,41.59,7.85
377,dingle,11,PH,1580101424,69,85.33,11.0,122.67,7.36
378,belomorsk,51,RU,1580101534,93,7.66,64.52,34.77,8.14
379,loudi,69,CN,1580101534,70,40.98,27.73,111.99,8.43
380,cabo san lucas,20,MX,1580101369,77,66.2,22.89,-109.91,4.7
381,palanga,90,LT,1580101534,93,41.0,55.92,21.07,3.36
382,clyde river,1,CA,1580101535,74,-27.4,70.47,-68.59,4.7
383,qui nhon,68,VN,1580101413,71,79.18,13.77,109.23,5.06
384,poum,12,NC,1580101535,79,79.74,-20.23,164.02,20.56
385,kholmogory,2,RU,1580101535,83,-7.6,64.22,41.66,4.47
386,kirakira,99,SB,1580101535,74,82.9,-10.45,161.92,0.85
387,coari,98,BR,1580101536,86,77.07,-4.08,-63.14,2.71
388,mokhsogollokh,100,RU,1580101536,97,-13.54,61.47,128.92,3.78
389,inirida,99,CO,1580101536,77,76.37,3.87,-67.92,1.3
390,vilhena,80,BR,1580101270,89,70.95,-12.74,-60.15,1.68
391,le port,19,RE,1580101536,57,80.6,-20.94,55.29,11.41
392,nuenen,90,NL,1580101537,93,46.99,51.47,5.55,14.99
393,andenes,100,NO,1580101537,62,23.0,69.31,16.12,23.04
394,lagoa,100,PT,1580101383,91,61.7,39.05,-27.98,23.42
395,chase,75,CA,1580101537,75,41.0,50.82,-119.69,20.8
396,orbetello,40,IT,1580101538,86,46.0,42.44,11.22,4.7
397,gonbad-e qabus,0,IR,1580101538,80,33.8,37.25,55.17,6.13
398,shahpura,20,IN,1580101538,45,66.2,27.38,75.97,6.93
399,iberia,90,US,1580101538,100,55.4,29.95,-91.75,6.93
400,los llanos de aridane,97,ES,1580101470,72,60.8,28.66,-17.92,8.05
401,jalalabad,75,AF,1580101539,25,44.6,34.43,70.45,5.17
402,meadow lake,1,US,1580101539,59,42.01,34.8,-106.54,1.43
403,starobesheve,0,UA,1580101539,81,31.53,47.75,38.03,5.97
404,moyamba,76,SL,1580101539,96,67.96,8.17,-12.43,2.42
405,jieshi,10,CN,1580101540,65,55.99,22.81,115.83,5.01
406,itarare,0,BR,1580101540,75,66.43,-24.11,-49.33,2.59
407,urumqi,40,CN,1580101540,92,12.2,43.8,87.6,4.47
408,shingu,75,JP,1580101540,62,57.2,33.73,135.98,10.29
409,namibe,89,AO,1580101540,74,74.26,-15.2,12.15,4.92
410,russell,90,US,1580101541,70,50.0,32.35,-85.2,3.27
411,kralendijk,28,BQ,1580101434,83,78.8,12.15,-68.27,5.82
412,shenkursk,100,RU,1580101541,94,0.36,62.11,42.9,8.28
413,vanavara,89,RU,1580101541,94,6.42,60.34,102.28,5.35
414,bloomingdale,75,US,1580101447,76,59.0,27.89,-82.24,4.09
415,roald,100,NO,1580101265,87,44.6,62.58,6.13,23.04
416,kamenka,97,RU,1580101542,88,34.0,51.32,42.77,8.01
417,samarai,56,PG,1580101542,58,88.72,-10.62,150.67,8.57
418,pallisa,93,UG,1580101542,80,70.05,1.15,33.71,0.78
419,balkanabat,31,TM,1580101542,62,41.04,39.51,54.37,5.17
420,iqaluit,75,CA,1580101543,68,-20.0,63.75,-68.51,6.82
421,lewistown,90,US,1580101543,86,36.0,40.6,-77.57,9.17
422,yuzhno-kurilsk,68,RU,1580101543,59,22.42,44.03,145.86,26.4
423,warrnambool,100,AU,1580101532,58,69.01,-38.38,142.48,10.33
424,sao domingos do maranhao,100,BR,1580101543,97,72.86,-5.58,-44.39,1.61
425,palmer,90,US,1580101543,69,37.99,42.16,-72.33,6.93
426,viedma,0,AR,1580101502,66,49.6,-40.81,-63.0,2.33
427,bathsheba,40,BB,1580101544,69,78.8,13.22,-59.52,10.29
428,wilmington,1,US,1580101544,70,46.0,34.23,-77.94,3.69
429,pisco,67,PE,1580101544,83,73.4,-13.7,-76.22,8.05
430,ahipara,43,NZ,1580101544,75,79.0,-35.17,173.17,7.52
431,lake charles,90,US,1580101544,100,57.2,30.21,-93.2,3.36
432,ust-nera,100,RU,1580101545,99,-31.2,64.57,143.2,3.58
433,praya,0,CV,1580101545,60,73.4,14.92,-23.51,12.75
434,kushima,75,JP,1580101545,100,60.8,31.46,131.23,25.28
435,svetlaya,0,RU,1580101545,69,21.0,46.54,138.33,4.79
436,umm kaddadah,0,SD,1580101545,27,55.99,13.6,26.69,16.04
437,rancho palos verdes,75,US,1580101369,93,59.0,33.74,-118.39,9.62
438,richards bay,100,ZA,1580101546,83,72.82,-28.78,32.04,34.67
439,sinnamary,100,GF,1580101546,83,79.47,5.38,-52.95,15.37
440,kudahuvadhoo,93,MV,1580101546,75,81.5,2.67,72.89,11.7
441,marienburg,90,PL,1580101546,100,36.0,54.04,19.03,4.7
442,batagay-alyta,0,RU,1580101546,46,-30.06,67.8,130.41,4.32
443,guanica,1,PR,1580101547,85,73.99,17.97,-66.91,4.7
444,zhanakorgan,100,KZ,1580101547,98,28.65,43.91,67.25,19.22
445,fomboni,15,KM,1580101547,74,82.72,-12.28,43.74,7.18
446,ranong,40,TH,1580101547,59,89.6,9.97,98.63,3.36
447,padang,81,ID,1580101547,82,79.2,-0.95,100.35,3.42
448,tucuman,90,AR,1580101547,83,71.6,-26.82,-65.22,13.87
449,micheweni,55,TZ,1580101548,79,81.54,-4.97,39.83,3.87
450,ulaangom,17,MN,1580101384,82,3.78,49.98,92.07,2.24
451,tucurui,81,BR,1580101548,95,74.32,-3.77,-49.67,5.53
452,kardailovo,99,RU,1580101548,94,16.41,51.54,53.9,12.28
453,villarrobledo,16,ES,1580101548,97,37.0,39.27,-2.6,1.01
454,malakal,0,SS,1580101548,18,71.78,9.53,31.66,12.17
455,moussoro,0,TD,1580101549,20,57.83,13.64,16.49,10.38
456,lovozero,96,RU,1580101549,95,2.03,68.0,35.01,13.58
457,belaya gora,82,RU,1580101549,93,-32.33,68.53,146.42,2.48
458,sabang,100,ID,1580101549,80,81.48,5.89,95.32,15.57
459,palu,83,ID,1580101464,62,84.43,-0.89,119.87,5.32
460,cascais,75,PT,1580101550,93,57.99,38.7,-9.42,9.17
461,iroquois falls,90,CA,1580101550,100,21.2,48.77,-80.68,11.41
462,harper,63,LR,1580101550,93,76.73,4.38,-7.72,2.57
463,kangaatsiaq,100,GL,1580101550,89,7.5,68.31,-53.46,16.6
464,azare,0,NG,1580101550,26,53.64,11.68,10.19,6.13
465,thunder bay,90,CA,1580101276,85,26.01,48.4,-89.32,4.7
466,katsuura,75,JP,1580101551,65,46.0,35.13,140.3,13.87
467,bombay,0,IN,1580101255,57,87.01,19.01,72.85,8.05
468,sawai madhopur,0,IN,1580101551,35,71.69,25.98,76.37,6.53
469,ketchikan,90,US,1580101334,86,42.8,55.34,-131.65,19.46
470,pangnirtung,100,CA,1580101551,98,-38.09,66.15,-65.71,0.67
471,tabou,38,CI,1580101552,94,76.44,4.42,-7.35,2.77
472,west bay,14,KY,1580101552,76,75.99,19.37,-81.42,5.01
473,udachnyy,90,RU,1580101552,75,-20.2,66.42,112.4,2.48
474,buraydah,0,SA,1580101550,47,33.8,26.33,43.98,3.36
475,mariental,0,NA,1580101552,34,66.2,-24.63,17.97,2.24
476,pafos,75,CY,1580101531,81,48.2,34.77,32.42,4.7
477,yermakovskoye,0,RU,1580101553,86,18.27,53.28,92.4,3.91
478,lermontovka,0,RU,1580101553,77,12.33,47.15,134.34,4.61
479,lompoc,1,US,1580101553,93,57.0,34.64,-120.46,4.7
480,alofi,100,NU,1580101553,79,84.2,-19.06,-169.92,8.05
481,sao gabriel da cachoeira,100,BR,1580101553,97,73.94,-0.13,-67.09,1.07
482,de-kastri,0,RU,1580101554,88,5.4,51.47,140.78,3.47
483,lata,40,PT,1580101554,87,55.0,40.16,-8.33,6.93
484,inongo,41,CD,1580101554,46,74.77,-1.95,18.27,2.08
485,swabi,73,PK,1580101319,43,57.33,34.12,72.47,2.95
486,kununurra,40,AU,1580101554,45,100.4,-15.77,128.73,5.82
487,khani,1,GE,1580101554,92,28.4,41.96,42.96,6.93
488,khor,0,RU,1580101555,87,10.09,47.89,134.95,5.75
489,zabaykalsk,0,RU,1580101555,82,8.65,49.63,117.32,2.37
490,cartagena,20,CO,1580101555,83,78.8,10.4,-75.51,8.05
491,surovatikha,90,RU,1580101555,68,30.2,55.77,43.9,20.13
492,minsk,75,BY,1580101537,88,32.0,53.9,27.57,4.47
493,concepcion,5,CL,1580101361,72,62.6,-36.83,-73.05,9.17
494,sharanga,100,RU,1580101556,86,20.41,57.18,46.54,16.06
495,paralimni,40,CY,1580101556,87,48.99,35.04,33.98,2.24
496,karratha,0,AU,1580101556,70,86.74,-20.74,116.85,17.16
497,abay,75,KZ,1580101556,92,24.8,49.63,72.85,31.32
498,pangody,78,RU,1580101556,98,-8.36,65.85,74.49,7.52
499,port hedland,3,AU,1580101557,33,100.4,-20.32,118.57,11.41
500,talara,68,PE,1580101557,92,73.56,-4.58,-81.27,10.11
501,antalaha,88,MG,1580101557,80,79.07,-14.9,50.28,18.19
502,margate,20,GB,1580101557,93,48.2,51.38,1.39,11.41
503,severo-kurilsk,86,RU,1580101557,91,19.54,50.68,156.12,10.02
504,askino,100,RU,1580101557,98,-1.62,56.09,56.58,6.87
505,maldonado,41,UY,1580101558,94,69.8,-34.67,-54.92,6.93
506,ouadda,0,CF,1580101558,19,65.37,8.08,22.4,7.81
507,karagaylinskiy,100,RU,1580101558,76,20.95,54.17,86.55,8.79
508,tashara,100,RU,1580101558,80,19.89,55.52,83.51,18.79
509,varhaug,75,NO,1580101558,93,44.01,58.61,5.65,10.29
510,hay river,75,CA,1580101558,84,1.4,60.82,-115.8,3.36
511,dimbokro,46,CI,1580101559,99,72.03,6.65,-4.7,1.1
512,kalaiya,3,NP,1580101559,55,67.19,27.03,85.0,5.53
513,tezu,0,IN,1580101559,27,67.12,27.92,96.17,3.67
514,tilichiki,94,RU,1580101559,86,23.2,60.47,166.1,11.23
515,dalvik,34,IS,1580101559,79,21.2,65.97,-18.53,11.41
516,nago,75,JP,1580101559,68,71.6,26.59,127.98,24.16
517,kamyshlov,93,RU,1580101560,93,2.1,56.84,62.71,7.02
518,conchal,0,BR,1580101560,66,64.0,-22.33,-47.17,4.21
519,talcahuano,0,CL,1580101560,72,62.6,-36.72,-73.12,9.17
520,marsh harbour,98,BS,1580101513,50,69.58,26.54,-77.06,5.28
521,fukue,75,JP,1580101560,93,50.0,32.69,128.84,25.28
522,satipo,100,PE,1580101560,93,62.65,-11.25,-74.64,2.84
523,presidencia roque saenz pena,50,AR,1580101561,49,77.34,-26.79,-60.44,3.38
524,nome,1,US,1580101561,58,-5.8,64.5,-165.41,5.82
525,iwanai,28,JP,1580101561,73,29.39,42.97,140.51,1.81
526,mehamn,75,NO,1580101561,67,21.2,71.04,27.85,8.05
527,mount pleasant,90,US,1580101439,81,51.01,32.79,-79.86,3.49
528,broken hill,0,AU,1580101561,14,96.8,-31.95,141.43,14.99
529,gayny,78,RU,1580101562,97,-5.69,60.31,54.32,3.74
530,suntar,100,RU,1580101562,88,11.32,62.14,117.63,8.95
531,saint-pierre,75,RE,1580101562,61,80.6,-21.34,55.48,6.93
532,ban nahin,76,LA,1580101562,54,76.28,18.24,104.21,5.37
533,fairbanks,90,US,1580101531,68,-15.0,64.84,-147.72,4.68
534,kirksville,90,US,1580101499,100,30.2,40.19,-92.58,9.17
535,artesia,75,US,1580101563,93,59.0,33.87,-118.08,3.78
536,zhaotong,100,CN,1580101563,80,34.63,27.32,103.72,4.7
537,williston,90,US,1580101563,100,30.2,48.15,-103.62,1.83
538,dongsheng,99,CN,1580101563,90,27.09,39.82,109.98,4.85
539,lac du bonnet,100,CA,1580101564,95,14.0,50.25,-96.06,4.29
540,bayan,0,CN,1580101564,24,39.0,46.08,127.4,0.54
541,albion,90,US,1580101407,96,33.8,42.24,-84.75,5.82
542,magaria,3,NE,1580101564,18,55.4,13.0,8.91,9.51
543,calafell,68,ES,1580101564,87,50.0,41.2,1.57,1.12
544,arvika,100,SE,1580101564,100,39.99,59.66,12.59,10.29
545,kahului,20,US,1580101565,69,77.0,20.89,-156.47,4.7
546,boa viagem,100,BR,1580101565,93,73.92,-5.13,-39.73,1.21
547,aksarka,94,RU,1580101565,98,-11.09,66.56,67.8,7.52
548,malindi,75,KE,1580101565,94,78.8,-3.22,40.12,7.07
549,columbus,90,US,1580101469,81,35.6,39.96,-83.0,3.36
550,glendive,90,US,1580101418,92,30.99,47.11,-104.71,2.68
551,anadyr,75,RU,1580101566,78,14.0,64.75,177.48,11.18
552,suez,92,EG,1580101566,66,49.62,29.97,32.53,6.44
553,syamzha,80,RU,1580101566,94,5.23,60.02,41.06,7.29
554,acajutla,10,SV,1580101566,79,80.35,13.59,-89.83,13.11
555,tual,74,ID,1580101566,71,84.56,-5.67,132.75,10.83
